# Time (s),Altitude (m),Vertical velocity (m/s),Vertical acceleration (m/s²),Total velocity (m/s),Total acceleration (m/s²),Position East of launch (m),Position North of launch (m),Lateral distance (m),Lateral direction (°),Lateral velocity (m/s),Lateral acceleration (m/s²),Latitude (°),Longitude (°),Gravitational acceleration (m/s²),Angle of attack (°),Roll rate (r/s),Pitch rate (r/s),Yaw rate (r/s),Mass (g),Motor mass (g),Longitudinal moment of inertia (kg·m²),Rotational moment of inertia (kg·m²),CP location (cm),CG location (cm),Stability margin calibers (​),Mach number (​),Reynolds number (​),Thrust (N),Drag force (N),Drag coefficient (​),Axial drag coefficient (​),Friction drag coefficient (​),Pressure drag coefficient (​),Base drag coefficient (​),Normal force coefficient (​),Pitch moment coefficient (​),Yaw moment coefficient (​),Side force coefficient (​),Roll moment coefficient (​),Roll forcing coefficient (​),Roll damping coefficient (​),Pitch damping coefficient (​),Coriolis acceleration (m/s²),Reference length (cm),Reference area (cm²),Vertical orientation (zenith) (°),Lateral orientation (azimuth) (°),Wind velocity (m/s),Air temperature (°C),Air pressure (mbar),Speed of sound (m/s),Simulation time step (s),Computation time (s)
0.01,-4.667e-4,-0.093,-9.334,0.093,9.336,-8.146e-6,0,8.146e-6,180,0.002,0.163,35.353,-117.807,9.796,91.109,0,0,0,1.062e5,4.371e4,140.389,1.093,NaN,363.081,NaN,0.008,9.006e5,48.707,-1.574e-6,0.514,-9.28e-6,0.471,0.003,0.04,NaN,NaN,NaN,NaN,NaN,NaN,NaN,NaN,1.111e-5,24.13,457.303,89,0,2.536,10.925,940.419,337.919,0.01,0.011
0.02,-4.209e-4,-0.084,-8.418,0.084,8.419,-7.347e-6,0,7.347e-6,180,0.001,0.147,35.353,-117.807,9.796,90.9,0,0,0,1.062e5,4.369e4,140.384,1.093,NaN,363.077,NaN,0.008,9.019e5,146.021,-8.429e-7,0.514,-4.957e-6,0.471,0.003,0.04,NaN,NaN,NaN,NaN,NaN,NaN,NaN,NaN,1.001e-5,24.13,457.303,89,0,2.54,10.925,940.419,337.919,0.01,0.013
0.03,-3.751e-4,-0.075,-7.502,0.075,7.503,-6.547e-6,0,6.547e-6,180,0.001,0.131,35.353,-117.807,9.796,90.69,0,0,0,1.061e5,4.367e4,140.38,1.093,NaN,363.074,NaN,0.008,9.032e5,243.234,-3.829e-7,0.514,-2.245e-6,0.47,0.003,0.04,NaN,NaN,NaN,NaN,NaN,NaN,NaN,NaN,8.925e-6,24.13,457.303,89,0,2.543,10.925,940.419,337.919,0.01,0.016
0.04,-3.293e-4,-0.066,-6.585,0.066,6.586,-5.748e-6,0,5.748e-6,180,0.001,0.115,35.353,-117.807,9.796,90.482,0,0,0,1.061e5,4.365e4,140.376,1.093,NaN,363.07,NaN,0.008,9.045e5,340.448,-1.307e-7,0.514,-7.645e-7,0.47,0.003,0.04,NaN,NaN,NaN,NaN,NaN,NaN,NaN,NaN,7.835e-6,24.13,457.303,89,0,2.547,10.925,940.419,337.919,0.01,0.018
0.05,-2.835e-4,-0.057,-5.669,0.057,5.669,-4.948e-6,0,4.948e-6,180,9.895e-4,0.099,35.353,-117.807,9.796,90.274,0,0,0,1.061e5,4.363e4,140.371,1.093,NaN,363.067,NaN,0.008,9.058e5,437.662,-2.408e-8,0.514,-1.404e-7,0.47,0.003,0.04,NaN,NaN,NaN,NaN,NaN,NaN,NaN,NaN,6.745e-6,24.13,457.303,89,0,2.551,10.925,940.419,337.919,0.01,0.02
0.06,-2.376e-4,-0.048,-4.752,0.048,4.752,-4.148e-6,0,4.148e-6,180,8.295e-4,0.083,35.353,-117.807,9.796,90.046,0,0,0,1.061e5,4.361e4,140.367,1.093,NaN,363.064,NaN,0.008,9.241e5,534.875,0,0.512,0,0.468,0.003,0.04,NaN,NaN,NaN,NaN,NaN,NaN,NaN,NaN,5.654e-6,24.13,457.303,89,0,2.602,10.925,940.419,337.919,0.01,0.022
0.07,-1.918e-4,-0.038,-3.834,0.038,3.835,-3.347e-6,0,3.347e-6,180,6.694e-4,0.067,35.353,-117.807,9.796,89.828,0,0,0,1.061e5,4.36e4,140.363,1.092,NaN,363.06,NaN,0.008,9.425e5,632.089,6.436e-9,0.51,3.465e-8,0.466,0.003,0.04,NaN,NaN,NaN,NaN,NaN,NaN,NaN,NaN,4.563e-6,24.13,457.303,89,0,2.654,10.925,940.419,337.919,0.01,0.024
0.08,-1.459e-4,-0.029,-2.917,0.029,2.917,-2.546e-6,0,2.546e-6,180,5.092e-4,0.051,35.353,-117.807,9.796,89.618,0,0,0,1.06e5,4.358e4,140.358,1.092,NaN,363.057,NaN,0.008,9.609e5,729.303,7.294e-8,0.508,3.779e-7,0.465,0.003,0.04,NaN,NaN,NaN,NaN,NaN,NaN,NaN,NaN,3.471e-6,24.13,457.303,89,0,2.706,10.925,940.419,337.919,0.01,0.026
0.09,-9.998e-5,-0.02,-1.999,0.02,1.999,-1.745e-6,0,1.745e-6,180,3.49e-4,0.035,35.353,-117.807,9.796,89.415,0,0,0,1.06e5,4.356e4,140.354,1.092,NaN,363.054,NaN,0.008,9.794e5,826.516,2.695e-7,0.507,1.344e-6,0.463,0.003,0.04,NaN,NaN,NaN,NaN,NaN,NaN,NaN,NaN,2.379e-6,24.13,457.303,89,0,2.758,10.925,940.419,337.919,0.01,0.028
0.1,-5.407e-5,-0.011,-1.08,0.011,1.081,-9.439e-7,0,9.439e-7,180,1.887e-4,0.019,35.353,-117.807,9.796,89.221,0,0,0,1.06e5,4.354e4,140.349,1.092,NaN,363.05,NaN,0.008,9.978e5,923.73,6.598e-7,0.505,3.17e-6,0.461,0.003,0.04,NaN,NaN,NaN,NaN,NaN,NaN,NaN,NaN,1.286e-6,24.13,457.303,89,0,2.81,10.925,940.419,337.919,0.01,0.03
0.11,-8.149e-6,-0.002,-0.162,0.002,0.162,-1.422e-7,0,1.422e-7,180,2.84e-5,0.003,35.353,-117.807,9.796,89.033,0,0,0,1.06e5,4.352e4,140.345,1.092,NaN,363.047,NaN,0.008,1.014e6,1020.944,1.296e-6,0.503,6.03e-6,0.46,0.003,0.04,NaN,NaN,NaN,NaN,NaN,NaN,NaN,NaN,1.936e-7,24.13,457.303,89,0,2.855,10.925,940.419,337.919,0.01,0.032
0.12,3.779e-5,0.008,0.757,0.008,0.757,6.597e-7,0,6.597e-7,0,1.32e-4,0.013,35.353,-117.807,9.796,88.851,0,0,0,1.06e5,4.35e4,140.341,1.092,NaN,363.043,NaN,0.009,1.03e6,1118.158,2.232e-6,0.502,1.007e-5,0.458,0.003,0.04,NaN,NaN,NaN,NaN,NaN,NaN,NaN,NaN,8.997e-7,24.13,457.303,89,0,2.9,10.924,940.419,337.919,0.01,0.034
0.13,1.972e-4,0.024,1.676,0.024,1.677,3.442e-6,0,3.442e-6,0,4.244e-4,0.029,35.353,-117.807,9.796,88.527,0,0,0,1.06e5,4.348e4,140.336,1.092,NaN,363.04,NaN,0.009,1.046e6,1215.371,4.817e-6,0.501,2.106e-5,0.457,0.003,0.04,NaN,NaN,NaN,NaN,NaN,NaN,NaN,NaN,2.893e-6,24.13,457.303,89,0,2.945,10.924,940.419,337.919,0.01,0.036
0.14,5.701e-4,0.05,2.596,0.05,2.596,9.95e-6,0,9.95e-6,0,8.774e-4,0.045,35.353,-117.807,9.796,88.037,0,0,0,1.059e5,4.346e4,140.332,1.091,NaN,363.037,NaN,0.009,1.062e6,1312.585,1.166e-5,0.499,4.944e-5,0.455,0.003,0.04,NaN,NaN,NaN,NaN,NaN,NaN,NaN,NaN,5.98e-6,24.13,457.303,89,0,2.99,10.924,940.419,337.919,0.01,0.037
0.15,0.001,0.085,3.516,0.085,3.517,2.179e-5,0,2.179e-5,0,0.001,0.061,35.353,-117.807,9.796,87.389,0,0,0,1.059e5,4.344e4,140.328,1.091,NaN,363.033,NaN,0.009,1.079e6,1409.799,2.805e-5,0.498,1.153e-4,0.454,0.003,0.04,NaN,NaN,NaN,NaN,NaN,NaN,NaN,NaN,1.016e-5,24.13,457.303,89,0,3.035,10.924,940.419,337.919,0.01,0.039
0.16,0.002,0.13,4.436,0.13,4.437,4.057e-5,0,4.057e-5,0,0.002,0.077,35.353,-117.807,9.796,86.595,0,0,0,1.059e5,4.342e4,140.323,1.091,NaN,363.03,NaN,0.009,1.098e6,1507.012,6.371e-5,0.496,2.526e-4,0.453,0.003,0.04,NaN,NaN,NaN,NaN,NaN,NaN,NaN,NaN,1.544e-5,24.13,457.303,89,0,3.088,10.924,940.419,337.919,0.01,0.041
0.17,0.004,0.183,5.357,0.183,5.358,6.789e-5,0,6.789e-5,0,0.003,0.094,35.353,-117.807,9.796,85.663,0,0,0,1.059e5,4.34e4,140.319,1.091,NaN,363.026,NaN,0.009,1.118e6,1604.226,1.348e-4,0.495,5.152e-4,0.451,0.003,0.04,NaN,NaN,NaN,NaN,NaN,NaN,NaN,NaN,2.181e-5,24.13,457.303,89,0,3.141,10.924,940.419,337.919,0.01,0.043
0.18,0.006,0.246,6.278,0.246,6.279,1.054e-4,0,1.054e-4,0,0.004,0.11,35.353,-117.807,9.796,84.6,0,0,0,1.059e5,4.338e4,140.315,1.091,NaN,363.023,NaN,0.009,1.139e6,1701.44,2.659e-4,0.493,9.8e-4,0.449,0.003,0.04,NaN,NaN,NaN,NaN,NaN,NaN,NaN,NaN,2.928e-5,24.13,457.303,89,0,3.194,10.924,940.419,337.919,0.01,0.044
0.19,0.009,0.318,7.199,0.318,7.2,1.546e-4,0,1.546e-4,0,0.006,0.126,35.353,-117.807,9.796,83.414,0,0,0,1.058e5,4.337e4,140.31,1.091,NaN,363.02,NaN,0.01,1.161e6,1798.653,4.924e-4,0.491,0.002,0.448,0.003,0.04,NaN,NaN,NaN,NaN,NaN,NaN,NaN,NaN,3.784e-5,24.13,457.303,89,0,3.247,10.924,940.418,337.919,0.01,0.046
0.2,0.012,0.399,8.121,0.399,8.122,2.172e-4,0,2.172e-4,0,0.007,0.142,35.353,-117.807,9.796,82.115,0,0,0,1.058e5,4.335e4,140.306,1.091,NaN,363.016,NaN,0.01,1.183e6,1895.867,8.624e-4,0.49,0.003,0.446,0.003,0.04,NaN,NaN,NaN,NaN,NaN,NaN,NaN,NaN,4.75e-5,24.13,457.303,89,0,3.3,10.924,940.418,337.919,0.01,0.048
0.21,0.017,0.49,9.043,0.49,9.044,2.948e-4,0,2.948e-4,0,0.009,0.158,35.353,-117.807,9.796,80.692,0,0,0,1.058e5,4.333e4,140.302,1.091,NaN,363.013,NaN,0.01,1.203e6,1993.081,0.001,0.488,0.005,0.444,0.003,0.04,NaN,NaN,NaN,NaN,NaN,NaN,NaN,NaN,5.826e-5,24.13,457.303,89,0,3.344,10.924,940.417,337.919,0.01,0.05
0.22,0.022,0.589,9.965,0.589,9.967,3.89e-4,0,3.89e-4,0,0.01,0.174,35.353,-117.807,9.796,79.166,0,0,0,1.058e5,4.331e4,140.297,1.09,NaN,363.009,NaN,0.01,1.225e6,2090.294,0.002,0.487,0.007,0.443,0.003,0.04,NaN,NaN,NaN,NaN,NaN,NaN,NaN,NaN,7.011e-5,24.13,457.303,89,0,3.389,10.924,940.417,337.919,0.01,0.051
0.23,0.029,0.698,10.888,0.698,10.889,5.013e-4,0,5.013e-4,0,0.012,0.19,35.353,-117.807,9.796,77.548,0,0,0,1.058e5,4.329e4,140.293,1.09,NaN,363.006,NaN,0.01,1.249e6,2187.508,0.004,0.485,0.011,0.441,0.003,0.04,NaN,NaN,NaN,NaN,NaN,NaN,NaN,NaN,8.306e-5,24.13,457.303,89,0,3.434,10.924,940.416,337.919,0.01,0.053
0.24,0.036,0.816,11.811,0.816,11.812,6.335e-4,0,6.335e-4,0,0.014,0.206,35.353,-117.807,9.796,75.849,0,0,0,1.057e5,4.327e4,140.289,1.09,NaN,363.003,NaN,0.011,1.274e6,2284.722,0.005,0.483,0.016,0.44,0.003,0.04,NaN,NaN,NaN,NaN,NaN,NaN,NaN,NaN,9.711e-5,24.13,457.303,89,0,3.479,10.924,940.415,337.919,0.01,0.055
0.25,0.045,0.944,12.734,0.944,12.736,7.871e-4,0,7.871e-4,0,0.016,0.222,35.353,-117.807,9.796,74.077,0,0,0,1.057e5,4.325e4,140.284,1.09,NaN,362.999,NaN,0.011,1.301e6,2381.936,0.008,0.481,0.022,0.438,0.003,0.04,NaN,NaN,NaN,NaN,NaN,NaN,NaN,NaN,1.123e-4,24.13,457.303,89,0,3.524,10.924,940.414,337.919,0.01,0.059
0.26,0.055,1.08,13.658,1.08,13.66,9.637e-4,0,9.637e-4,0,0.019,0.238,35.353,-117.807,9.796,72.415,0,0,0,1.057e5,4.323e4,140.28,1.09,NaN,362.996,NaN,0.011,1.344e6,2479.149,0.011,0.479,0.029,0.435,0.003,0.04,NaN,NaN,NaN,NaN,NaN,NaN,NaN,NaN,1.285e-4,24.13,457.303,89,0,3.608,10.924,940.413,337.919,0.01,0.061
0.27,0.067,1.226,14.581,1.226,14.584,0.001,0,0.001,0,0.021,0.255,35.353,-117.807,9.796,70.728,0,0,0,1.057e5,4.321e4,140.276,1.09,NaN,362.992,NaN,0.012,1.389e6,2576.363,0.015,0.476,0.037,0.432,0.003,0.04,NaN,NaN,NaN,NaN,NaN,NaN,NaN,NaN,1.459e-4,24.13,457.303,89,0,3.692,10.924,940.412,337.919,0.01,0.062
0.28,0.08,1.381,15.506,1.381,15.508,0.001,0,0.001,0,0.024,0.271,35.353,-117.807,9.796,69.026,0,0,0,1.057e5,4.319e4,140.271,1.09,NaN,362.989,NaN,0.012,1.436e6,2673.577,0.02,0.473,0.046,0.43,0.003,0.04,NaN,NaN,NaN,NaN,NaN,NaN,NaN,NaN,1.643e-4,24.13,457.303,89,0,3.775,10.924,940.41,337.919,0.01,0.064
0.29,0.094,1.545,16.43,1.545,16.433,0.002,0,0.002,0,0.027,0.287,35.353,-117.807,9.796,67.315,0,0,0,1.056e5,4.317e4,140.267,1.089,NaN,362.986,NaN,0.012,1.485e6,2770.79,0.026,0.47,0.056,0.427,0.003,0.04,NaN,NaN,NaN,NaN,NaN,NaN,NaN,NaN,1.838e-4,24.13,457.303,89,0,3.859,10.924,940.409,337.919,0.01,0.065
0.3,0.111,1.719,17.355,1.719,17.358,0.002,0,0.002,0,0.03,0.303,35.353,-117.807,9.796,65.605,0,0,0,1.056e5,4.315e4,140.263,1.089,NaN,362.982,NaN,0.013,1.537e6,2868.004,0.034,0.468,0.068,0.424,0.003,0.04,NaN,NaN,NaN,NaN,NaN,NaN,NaN,NaN,2.045e-4,24.13,457.303,89,0,3.943,10.924,940.407,337.919,0.01,0.067
0.31,0.129,1.902,18.28,1.902,18.283,0.002,0,0.002,0,0.033,0.319,35.353,-117.807,9.796,63.336,0,0,0,1.056e5,4.313e4,140.258,1.089,NaN,362.979,NaN,0.013,1.559e6,2965.218,0.044,0.467,0.086,0.423,0.003,0.04,NaN,NaN,NaN,NaN,NaN,NaN,NaN,NaN,2.262e-4,24.13,457.303,89,0,3.924,10.924,940.405,337.919,0.01,0.068
0.32,0.149,2.094,19.206,2.094,19.209,0.003,0,0.003,0,0.037,0.335,35.353,-117.807,9.796,61.03,0,0,0,1.056e5,4.312e4,140.254,1.089,NaN,362.975,NaN,0.013,1.585e6,3062.431,0.056,0.465,0.106,0.422,0.003,0.04,NaN,NaN,NaN,NaN,NaN,NaN,NaN,NaN,2.491e-4,24.13,457.303,89,0,3.906,10.924,940.403,337.919,0.01,0.07
0.33,0.171,2.295,20.132,2.295,20.135,0.003,0,0.003,0,0.04,0.351,35.353,-117.807,9.796,58.702,0,0,0,1.056e5,4.31e4,140.249,1.089,NaN,362.972,NaN,0.013,1.615e6,3159.645,0.07,0.464,0.129,0.42,0.003,0.04,NaN,NaN,NaN,NaN,NaN,NaN,NaN,NaN,2.73e-4,24.13,457.303,89,0,3.887,10.923,940.4,337.918,0.01,0.071
0.34,0.195,2.505,21.058,2.506,21.061,0.003,0,0.003,0,0.044,0.368,35.353,-117.807,9.796,56.367,0,0,0,1.055e5,4.308e4,140.245,1.089,NaN,362.969,NaN,0.014,1.65e6,3256.859,0.088,0.462,0.154,0.418,0.003,0.04,NaN,NaN,NaN,NaN,NaN,NaN,NaN,NaN,2.981e-4,24.13,457.303,89,0,3.869,10.923,940.397,337.918,0.01,0.073
0.35,0.221,2.725,21.985,2.726,21.988,0.004,0,0.004,0,0.048,0.384,35.353,-117.807,9.796,54.041,0,0,0,1.055e5,4.306e4,140.241,1.089,NaN,362.965,NaN,0.014,1.689e6,3354.072,0.108,0.46,0.18,0.417,0.003,0.04,NaN,NaN,NaN,NaN,NaN,NaN,NaN,NaN,3.242e-4,24.13,457.303,89,0,3.85,10.923,940.395,337.918,0.01,0.075
0.36,0.249,2.954,22.911,2.955,22.915,0.004,0,0.004,0,0.052,0.4,35.353,-117.807,9.796,52.041,0,0,0,1.055e5,4.304e4,140.236,1.088,NaN,362.962,NaN,0.015,1.745e6,3451.286,0.13,0.458,0.204,0.414,0.003,0.04,NaN,NaN,NaN,NaN,NaN,NaN,NaN,NaN,3.515e-4,24.13,457.303,89,0,3.875,10.923,940.391,337.918,0.01,0.076
0.37,0.28,3.193,23.838,3.193,23.842,0.005,0,0.005,0,0.056,0.416,35.353,-117.807,9.796,50.086,0,0,0,1.055e5,4.302e4,140.232,1.088,NaN,362.958,NaN,0.015,1.805e6,3548.5,0.155,0.455,0.228,0.411,0.003,0.04,NaN,NaN,NaN,NaN,NaN,NaN,NaN,NaN,3.799e-4,24.13,457.303,89,0,3.899,10.923,940.388,337.918,0.01,0.078
0.38,0.313,3.44,24.766,3.441,24.77,0.005,0,0.005,0,0.06,0.432,35.353,-117.807,9.796,48.183,0,0,0,1.055e5,4.3e4,140.228,1.088,NaN,362.955,NaN,0.016,1.869e6,3645.714,0.184,0.452,0.252,0.409,0.003,0.04,NaN,NaN,NaN,NaN,NaN,NaN,NaN,NaN,4.093e-4,24.13,457.303,89,0,3.923,10.922,940.384,337.918,0.01,0.079
0.39,0.349,3.697,25.694,3.698,25.697,0.006,0,0.006,0,0.065,0.448,35.353,-117.807,9.796,46.338,0,0,0,1.055e5,4.298e4,140.223,1.088,NaN,362.951,NaN,0.016,1.938e6,3742.927,0.216,0.45,0.276,0.406,0.003,0.04,NaN,NaN,NaN,NaN,NaN,NaN,NaN,NaN,4.399e-4,24.13,457.303,89,0,3.947,10.922,940.38,337.918,0.01,0.08
0.4,0.387,3.961,26.391,3.962,26.395,0.007,0,0.007,0,0.069,0.461,35.353,-117.807,9.796,44.571,0,0,0,1.054e5,4.296e4,140.219,1.088,NaN,362.948,NaN,0.017,2.01e6,3815.881,0.252,0.447,0.299,0.403,0.003,0.04,NaN,NaN,NaN,NaN,NaN,NaN,NaN,NaN,4.713e-4,24.13,457.303,89,0,3.972,10.922,940.376,337.918,0.01,0.082
0.41,0.428,4.225,26.423,4.226,26.427,0.007,0,0.007,0,0.074,0.461,35.353,-117.807,9.796,42.417,0,0,0,1.054e5,4.294e4,140.215,1.088,NaN,362.945,NaN,0.017,2.066e6,3818.529,0.292,0.445,0.327,0.401,0.003,0.04,NaN,NaN,NaN,NaN,NaN,NaN,NaN,NaN,5.027e-4,24.13,457.303,89,0,3.924,10.922,940.371,337.917,0.01,0.083
0.42,0.472,4.489,26.412,4.49,26.416,0.008,0,0.008,0,0.078,0.461,35.353,-117.807,9.796,40.38,0,0,0,1.054e5,4.292e4,140.21,1.088,NaN,362.941,NaN,0.018,2.125e6,3816.721,0.335,0.443,0.354,0.399,0.003,0.04,NaN,NaN,NaN,NaN,NaN,NaN,NaN,NaN,5.341e-4,24.13,457.303,89,0,3.877,10.921,940.367,337.917,0.01,0.084
0.43,0.518,4.753,26.401,4.754,26.405,0.009,0,0.009,0,0.083,0.461,35.353,-117.807,9.796,38.456,0,0,0,1.054e5,4.29e4,140.206,1.087,NaN,362.938,NaN,0.018,2.186e6,3814.913,0.379,0.441,0.379,0.397,0.003,0.04,NaN,NaN,NaN,NaN,NaN,NaN,NaN,NaN,5.655e-4,24.13,457.303,89,0,3.829,10.921,940.361,337.917,0.01,0.086
0.44,0.567,5.017,26.39,5.018,26.394,0.01,0,0.01,0,0.088,0.461,35.353,-117.807,9.796,36.64,0,0,0,1.054e5,4.289e4,140.202,1.087,NaN,362.934,NaN,0.019,2.25e6,3813.105,0.426,0.439,0.402,0.395,0.003,0.04,NaN,NaN,NaN,NaN,NaN,NaN,NaN,NaN,5.969e-4,24.13,457.303,89,0,3.782,10.921,940.356,337.917,0.01,0.087
0.45,0.618,5.281,26.379,5.282,26.383,0.011,0,0.011,0,0.092,0.46,35.353,-117.807,9.796,34.926,0,0,0,1.053e5,4.287e4,140.197,1.087,NaN,362.931,NaN,0.019,2.316e6,3811.297,0.474,0.436,0.423,0.393,0.003,0.04,NaN,NaN,NaN,NaN,NaN,NaN,NaN,NaN,6.283e-4,24.13,457.303,89,0,3.734,10.92,940.35,337.917,0.01,0.089
0.46,0.672,5.545,26.368,5.545,26.372,0.012,0,0.012,0,0.097,0.46,35.353,-117.807,9.796,34.024,0,0,0,1.053e5,4.285e4,140.193,1.087,NaN,362.927,NaN,0.02,2.405e6,3809.489,0.522,0.434,0.432,0.39,0.003,0.04,NaN,NaN,NaN,NaN,NaN,NaN,NaN,NaN,6.597e-4,24.13,457.303,89,0,3.789,10.92,940.344,337.916,0.01,0.09
0.47,0.729,5.808,26.357,5.809,26.361,0.013,0,0.013,0,0.101,0.46,35.353,-117.807,9.796,33.187,0,0,0,1.053e5,4.283e4,140.189,1.087,NaN,362.924,NaN,0.021,2.494e6,3807.681,0.572,0.431,0.44,0.388,0.003,0.04,NaN,NaN,NaN,NaN,NaN,NaN,NaN,NaN,6.91e-4,24.13,457.303,89,0,3.844,10.92,940.338,337.916,0.01,0.092
0.48,0.789,6.072,26.346,6.073,26.35,0.014,0,0.014,0,0.106,0.46,35.353,-117.807,9.796,32.408,0,0,0,1.053e5,4.281e4,140.184,1.087,NaN,362.921,NaN,0.022,2.583e6,3805.873,0.623,0.429,0.447,0.385,0.003,0.04,NaN,NaN,NaN,NaN,NaN,NaN,NaN,NaN,7.224e-4,24.13,457.303,89,0,3.899,10.919,940.331,337.916,0.01,0.094
0.49,0.851,6.335,26.335,6.336,26.339,0.015,0,0.015,0,0.111,0.46,35.353,-117.807,9.796,31.681,0,0,0,1.053e5,4.279e4,140.18,1.087,NaN,362.917,NaN,0.022,2.673e6,3804.065,0.677,0.426,0.453,0.383,0.003,0.04,NaN,NaN,NaN,NaN,NaN,NaN,NaN,NaN,7.537e-4,24.13,457.303,89,0,3.953,10.919,940.324,337.916,0.01,0.095
0.5,0.915,6.598,26.323,6.599,26.327,0.016,0,0.016,0,0.115,0.459,35.353,-117.807,9.796,31.002,0,0,0,1.052e5,4.277e4,140.175,1.087,NaN,362.914,NaN,0.023,2.763e6,3802.258,0.732,0.424,0.458,0.38,0.003,0.04,NaN,NaN,NaN,NaN,NaN,NaN,NaN,NaN,7.85e-4,24.13,457.303,89,0,4.008,10.919,940.317,337.916,0.01,0.096
0.51,0.983,6.861,26.312,6.862,26.316,0.017,0,0.017,0,0.12,0.459,35.353,-117.807,9.796,29.908,0,0,0,1.052e5,4.275e4,140.171,1.086,NaN,362.91,NaN,0.024,2.84e6,3800.45,0.79,0.422,0.469,0.379,0.003,0.04,NaN,NaN,NaN,NaN,NaN,NaN,NaN,NaN,8.163e-4,24.13,457.303,89,0,3.988,10.918,940.309,337.915,0.01,0.098
0.52,1.052,7.124,26.301,7.125,26.305,0.018,0,0.018,0,0.124,0.459,35.353,-117.807,9.796,28.872,0,0,0,1.052e5,4.273e4,140.167,1.086,NaN,362.907,NaN,0.024,2.918e6,3798.642,0.85,0.42,0.477,0.377,0.003,0.04,NaN,NaN,NaN,NaN,NaN,NaN,NaN,NaN,8.476e-4,24.13,457.303,89,0,3.968,10.918,940.302,337.915,0.01,0.099
0.53,1.125,7.387,26.29,7.388,26.294,0.02,0,0.02,0,0.129,0.459,35.353,-117.807,9.796,27.891,0,0,0,1.052e5,4.271e4,140.162,1.086,NaN,362.903,NaN,0.025,2.996e6,3796.834,0.91,0.419,0.485,0.375,0.003,0.04,NaN,NaN,NaN,NaN,NaN,NaN,NaN,NaN,8.789e-4,24.13,457.303,89,0,3.947,10.917,940.294,337.915,0.01,0.101
0.54,1.2,7.65,26.279,7.651,26.283,0.021,0,0.021,0,0.134,0.459,35.353,-117.807,9.796,26.96,0,0,0,1.052e5,4.269e4,140.158,1.086,NaN,362.9,NaN,0.026,3.076e6,3795.026,0.973,0.417,0.492,0.373,0.003,0.04,NaN,NaN,NaN,NaN,NaN,NaN,NaN,NaN,9.101e-4,24.13,457.303,89,0,3.927,10.917,940.285,337.914,0.01,0.102
0.55,1.278,7.912,26.268,7.914,26.272,0.022,0,0.022,0,0.138,0.459,35.353,-117.807,9.796,26.077,0,0,0,1.051e5,4.267e4,140.154,1.086,NaN,362.897,NaN,0.026,3.156e6,3793.218,1.036,0.415,0.497,0.371,0.003,0.04,NaN,NaN,NaN,NaN,NaN,NaN,NaN,NaN,9.414e-4,24.13,457.303,89,0,3.907,10.916,940.276,337.914,0.01,0.103
0.56,1.358,8.175,26.256,8.176,26.26,0.024,0,0.024,0,0.143,0.458,35.353,-117.807,9.796,25.543,0,0,0,1.051e5,4.265e4,140.149,1.086,NaN,362.893,NaN,0.027,3.245e6,3791.41,1.1,0.413,0.5,0.37,0.003,0.04,NaN,NaN,NaN,NaN,NaN,NaN,NaN,NaN,9.726e-4,24.13,457.303,89,0,3.941,10.916,940.267,337.914,0.01,0.105
0.57,1.441,8.437,26.245,8.439,26.249,0.025,0,0.025,0,0.147,0.458,35.353,-117.807,9.796,25.038,0,0,0,1.051e5,4.264e4,140.145,1.086,NaN,362.89,NaN,0.028,3.335e6,3789.602,1.166,0.411,0.501,0.368,0.003,0.04,NaN,NaN,NaN,NaN,NaN,NaN,NaN,NaN,0.001,24.13,457.303,89,0,3.975,10.915,940.258,337.913,0.01,0.106
0.58,1.527,8.7,26.234,8.701,26.238,0.027,0,0.027,0,0.152,0.458,35.353,-117.807,9.796,24.559,0,0,0,1.051e5,4.262e4,140.141,1.085,NaN,362.886,NaN,0.029,3.424e6,3787.794,1.233,0.41,0.503,0.366,0.003,0.04,NaN,NaN,NaN,NaN,NaN,NaN,NaN,NaN,0.001,24.13,457.303,89,0,4.009,10.915,940.249,337.913,0.01,0.107
0.59,1.615,8.962,26.223,8.963,26.227,0.028,0,0.028,0,0.156,0.458,35.353,-117.807,9.796,24.105,0,0,0,1.051e5,4.26e4,140.136,1.085,NaN,362.883,NaN,0.029,3.514e6,3785.986,1.302,0.408,0.504,0.364,0.003,0.04,NaN,NaN,NaN,NaN,NaN,NaN,NaN,NaN,0.001,24.13,457.303,89,0,4.043,10.914,940.239,337.913,0.01,0.109
0.6,1.706,9.224,26.211,9.225,26.215,0.03,0,0.03,0,0.161,0.458,35.353,-117.807,9.796,23.675,0,0,0,1.051e5,4.258e4,140.132,1.085,NaN,362.879,NaN,0.03,3.605e6,3784.179,1.372,0.406,0.505,0.363,0.003,0.04,NaN,NaN,NaN,NaN,NaN,NaN,NaN,NaN,0.001,24.13,457.303,89,0,4.077,10.913,940.229,337.912,0.01,0.11
0.61,1.8,9.486,26.2,9.487,26.204,0.031,0,0.031,0,0.166,0.457,35.353,-117.807,9.796,22.73,0,0,0,1.05e5,4.256e4,140.128,1.085,NaN,362.876,NaN,0.031,3.68e6,3782.371,1.441,0.405,0.509,0.361,0.003,0.04,NaN,NaN,NaN,NaN,NaN,NaN,NaN,NaN,0.001,24.13,457.303,89,0,4.004,10.913,940.218,337.912,0.01,0.112
0.62,1.896,9.748,26.189,9.749,26.193,0.033,0,0.033,0,0.17,0.457,35.353,-117.807,9.796,21.823,0,0,0,1.05e5,4.254e4,140.123,1.085,NaN,362.872,NaN,0.031,3.756e6,3780.563,1.511,0.404,0.512,0.36,0.003,0.04,NaN,NaN,NaN,NaN,NaN,NaN,NaN,NaN,0.001,24.13,457.303,89,0,3.932,10.912,940.207,337.912,0.01,0.113
0.63,1.995,10.01,26.177,10.011,26.181,0.035,0,0.035,0,0.175,0.457,35.353,-117.807,9.796,20.953,0,0,0,1.05e5,4.252e4,140.119,1.085,NaN,362.869,NaN,0.032,3.832e6,3778.755,1.581,0.403,0.515,0.359,0.003,0.04,NaN,NaN,NaN,NaN,NaN,NaN,NaN,NaN,0.001,24.13,457.303,89,0,3.86,10.912,940.196,337.911,0.01,0.114
0.64,2.096,10.271,26.166,10.273,26.17,0.037,0,0.037,0,0.179,0.457,35.353,-117.807,9.796,20.117,0,0,0,1.05e5,4.25e4,140.114,1.085,NaN,362.866,NaN,0.033,3.91e6,3776.947,1.65,0.401,0.516,0.358,0.003,0.04,NaN,NaN,NaN,NaN,NaN,NaN,NaN,NaN,0.001,24.13,457.303,89,0,3.788,10.911,940.185,337.911,0.01,0.116
0.65,2.2,10.533,26.155,10.534,26.159,0.038,0,0.038,0,0.184,0.457,35.353,-117.807,9.796,19.314,0,0,0,1.05e5,4.248e4,140.11,1.084,NaN,362.862,NaN,0.033,3.988e6,3775.139,1.72,0.4,0.517,0.356,0.003,0.04,NaN,NaN,NaN,NaN,NaN,NaN,NaN,NaN,0.001,24.13,457.303,89,0,3.715,10.91,940.173,337.91,0.01,0.117
0.66,2.307,10.794,26.143,10.796,26.147,0.04,0,0.04,0,0.188,0.456,35.353,-117.807,9.796,18.783,0,0,0,1.049e5,4.246e4,140.106,1.084,NaN,362.859,NaN,0.034,4.073e6,3773.331,1.792,0.399,0.517,0.355,0.003,0.04,NaN,NaN,NaN,NaN,NaN,NaN,NaN,NaN,0.001,24.13,457.303,89,0,3.694,10.91,940.162,337.91,0.01,0.118
0.67,2.416,11.055,26.132,11.057,26.136,0.042,0,0.042,0,0.193,0.456,35.353,-117.807,9.796,18.274,0,0,0,1.049e5,4.244e4,140.101,1.084,NaN,362.855,NaN,0.035,4.159e6,3771.523,1.865,0.398,0.516,0.354,0.003,0.04,NaN,NaN,NaN,NaN,NaN,NaN,NaN,NaN,0.001,24.13,457.303,89,0,3.673,10.909,940.149,337.91,0.01,0.12
0.68,2.528,11.317,26.121,11.318,26.125,0.044,0,0.044,0,0.198,0.456,35.353,-117.807,9.796,17.785,0,0,0,1.049e5,4.242e4,140.097,1.084,NaN,362.852,NaN,0.035,4.244e6,3769.715,1.939,0.396,0.515,0.353,0.003,0.04,NaN,NaN,NaN,NaN,NaN,NaN,NaN,NaN,0.001,24.13,457.303,89,0,3.652,10.908,940.137,337.909,0.01,0.121
0.69,2.643,11.578,26.109,11.579,26.113,0.046,0,0.046,0,0.202,0.456,35.353,-117.807,9.796,17.316,0,0,0,1.049e5,4.241e4,140.093,1.084,NaN,362.848,NaN,0.036,4.33e6,3767.907,2.013,0.395,0.513,0.351,0.003,0.04,NaN,NaN,NaN,NaN,NaN,NaN,NaN,NaN,0.001,24.13,457.303,89,0,3.631,10.907,940.124,337.909,0.01,0.122
0.7,2.76,11.839,26.098,11.84,26.102,0.048,0,0.048,0,0.207,0.456,35.353,-117.807,9.796,16.866,0,0,0,1.049e5,4.239e4,140.088,1.084,NaN,362.845,NaN,0.037,4.417e6,3766.1,2.088,0.394,0.512,0.35,0.003,0.04,NaN,NaN,NaN,NaN,NaN,NaN,NaN,NaN,0.001,24.13,457.303,89,0,3.609,10.907,940.111,337.908,0.01,0.124
0.71,2.879,12.099,26.086,12.101,26.09,0.05,0,0.05,0,0.211,0.455,35.353,-117.807,9.796,17.132,0,0,0,1.048e5,4.237e4,140.084,1.084,NaN,362.841,NaN,0.038,4.521e6,3764.292,2.18,0.392,0.51,0.349,0.003,0.04,NaN,NaN,NaN,NaN,NaN,NaN,NaN,NaN,0.001,24.13,457.303,89,0,3.751,10.906,940.098,337.908,0.01,0.125
0.72,3.002,12.36,26.075,12.362,26.079,0.052,0,0.052,0,0.216,0.455,35.353,-117.807,9.796,17.386,0,0,0,1.048e5,4.235e4,140.08,1.083,NaN,362.838,NaN,0.039,4.625e6,3762.484,2.273,0.391,0.508,0.347,0.003,0.04,NaN,NaN,NaN,NaN,NaN,NaN,NaN,NaN,0.001,24.13,457.303,89,0,3.893,10.905,940.084,337.907,0.01,0.126
0.73,3.127,12.621,26.063,12.623,26.067,0.055,0,0.055,0,0.22,0.455,35.353,-117.807,9.796,17.629,0,0,0,1.048e5,4.233e4,140.075,1.083,NaN,362.834,NaN,0.039,4.729e6,3760.676,2.368,0.39,0.506,0.346,0.003,0.04,NaN,NaN,NaN,NaN,NaN,NaN,NaN,NaN,0.002,24.13,457.303,89,0,4.034,10.904,940.07,337.907,0.01,0.127
0.74,3.254,12.881,26.052,12.883,26.056,0.057,0,0.057,0,0.225,0.455,35.353,-117.807,9.796,17.862,0,0,0,1.048e5,4.231e4,140.071,1.083,NaN,362.831,NaN,0.04,4.833e6,3758.868,2.465,0.388,0.505,0.345,0.003,0.04,NaN,NaN,NaN,NaN,NaN,NaN,NaN,NaN,0.002,24.13,457.303,89,0,4.176,10.903,940.056,337.906,0.01,0.13
0.75,3.384,13.142,26.04,13.144,26.044,0.059,0,0.059,0,0.229,0.455,35.353,-117.807,9.796,18.085,0,0,0,1.048e5,4.229e4,140.066,1.083,NaN,362.827,NaN,0.041,4.937e6,3757.06,2.563,0.387,0.503,0.343,0.003,0.04,NaN,NaN,NaN,NaN,NaN,NaN,NaN,NaN,0.002,24.13,457.303,89,0,4.318,10.903,940.041,337.906,0.01,0.131
0.76,3.517,13.402,26.028,13.404,26.032,0.061,0,0.061,0,0.234,0.454,35.353,-117.807,9.796,18.029,0,0,0,1.047e5,4.227e4,140.062,1.083,NaN,362.824,NaN,0.042,5.034e6,3755.252,2.661,0.387,0.502,0.343,0.003,0.04,NaN,NaN,NaN,NaN,NaN,NaN,NaN,NaN,0.002,24.13,457.303,89,0,4.388,10.902,940.026,337.905,0.01,0.134
0.77,3.652,13.662,26.017,13.664,26.021,0.064,0,0.064,0,0.238,0.454,35.353,-117.807,9.796,17.975,0,0,0,1.047e5,4.225e4,140.058,1.083,NaN,362.821,NaN,0.043,5.129e6,3753.444,2.763,0.387,0.502,0.343,0.003,0.04,NaN,NaN,NaN,NaN,NaN,NaN,NaN,NaN,0.002,24.13,457.303,89,0,4.459,10.901,940.011,337.905,0.01,0.135
0.78,3.79,13.922,26.005,13.924,26.009,0.066,0,0.066,0,0.243,0.454,35.353,-117.807,9.796,17.924,0,0,0,1.047e5,4.223e4,140.053,1.083,NaN,362.817,NaN,0.044,5.225e6,3751.636,2.868,0.387,0.502,0.343,0.003,0.04,NaN,NaN,NaN,NaN,NaN,NaN,NaN,NaN,0.002,24.13,457.303,89,0,4.53,10.9,939.996,337.904,0.01,0.136
0.79,3.931,14.182,25.993,14.184,25.997,0.069,0,0.069,0,0.248,0.454,35.353,-117.807,9.796,17.874,0,0,0,1.047e5,4.221e4,140.049,1.083,NaN,362.814,NaN,0.044,5.321e6,3749.828,2.975,0.387,0.502,0.343,0.003,0.04,NaN,NaN,NaN,NaN,NaN,NaN,NaN,NaN,0.002,24.13,457.303,89,0,4.601,10.899,939.98,337.904,0.01,0.138
0.8,4.074,14.442,25.982,14.444,25.986,0.071,0,0.071,0,0.252,0.454,35.353,-117.807,9.796,17.826,0,0,0,1.047e5,4.219e4,140.045,1.082,NaN,362.81,NaN,0.045,5.417e6,3748.02,3.083,0.387,0.502,0.343,0.003,0.04,NaN,NaN,NaN,NaN,NaN,NaN,NaN,NaN,0.002,24.13,457.303,89,0,4.672,10.898,939.964,337.903,0.01,0.139
0.81,4.219,14.701,25.97,14.704,25.974,0.074,0,0.074,0,0.257,0.453,35.353,-117.807,9.796,17.674,0,0,0,1.046e5,4.217e4,140.04,1.082,NaN,362.807,NaN,0.046,5.51e6,3746.213,3.19,0.387,0.503,0.343,0.003,0.04,NaN,NaN,NaN,NaN,NaN,NaN,NaN,NaN,0.002,24.13,457.303,89,0,4.712,10.897,939.948,337.903,0.01,0.14
0.82,4.368,14.961,25.958,14.963,25.962,0.076,0,0.076,0,0.261,0.453,35.353,-117.807,9.796,17.527,0,0,0,1.046e5,4.216e4,140.036,1.082,NaN,362.803,NaN,0.047,5.602e6,3744.405,3.299,0.387,0.503,0.343,0.003,0.04,NaN,NaN,NaN,NaN,NaN,NaN,NaN,NaN,0.002,24.13,457.303,89,0,4.753,10.896,939.931,337.902,0.01,0.141
0.83,4.519,15.22,25.946,15.223,25.95,0.079,0,0.079,0,0.266,0.453,35.353,-117.807,9.796,17.385,0,0,0,1.046e5,4.214e4,140.032,1.082,NaN,362.8,NaN,0.047,5.694e6,3742.597,3.409,0.387,0.503,0.343,0.003,0.04,NaN,NaN,NaN,NaN,NaN,NaN,NaN,NaN,0.002,24.13,457.303,89,0,4.793,10.895,939.914,337.901,0.01,0.142
0.84,4.672,15.48,25.935,15.482,25.939,0.082,0,0.082,0,0.27,0.453,35.353,-117.807,9.796,17.248,0,0,0,1.046e5,4.212e4,140.027,1.082,NaN,362.796,NaN,0.048,5.787e6,3740.789,3.521,0.387,0.503,0.343,0.003,0.04,NaN,NaN,NaN,NaN,NaN,NaN,NaN,NaN,0.002,24.13,457.303,89,0,4.834,10.894,939.897,337.901,0.01,0.143
0.85,4.828,15.739,25.923,15.741,25.927,0.084,0,0.084,0,0.275,0.452,35.353,-117.807,9.796,17.115,0,0,0,1.046e5,4.21e4,140.023,1.082,NaN,362.793,NaN,0.049,5.879e6,3738.981,3.634,0.387,0.503,0.343,0.003,0.04,NaN,NaN,NaN,NaN,NaN,NaN,NaN,NaN,0.002,24.13,457.303,89,0,4.874,10.893,939.88,337.9,0.01,0.144
0.86,4.987,15.998,25.911,16,25.915,0.087,0,0.087,0,0.279,0.452,35.353,-117.807,9.796,17.104,0,0,0,1.046e5,4.208e4,140.018,1.082,NaN,362.789,NaN,0.05,5.975e6,3737.173,3.754,0.387,0.503,0.343,0.003,0.04,NaN,NaN,NaN,NaN,NaN,NaN,NaN,NaN,0.002,24.13,457.303,89,0,4.951,10.892,939.862,337.9,0.01,0.145
0.87,5.148,16.257,25.899,16.259,25.903,0.09,0,0.09,0,0.284,0.452,35.353,-117.807,9.796,17.093,0,0,0,1.045e5,4.206e4,140.014,1.081,NaN,362.786,NaN,0.051,6.072e6,3735.365,3.876,0.387,0.503,0.343,0.003,0.04,NaN,NaN,NaN,NaN,NaN,NaN,NaN,NaN,0.002,24.13,457.303,89,0,5.028,10.891,939.844,337.899,0.01,0.146
0.88,5.312,16.516,25.887,16.518,25.891,0.093,0,0.093,0,0.288,0.452,35.353,-117.807,9.796,17.083,0,0,0,1.045e5,4.204e4,140.01,1.081,NaN,362.782,NaN,0.051,6.168e6,3733.557,4,0.387,0.503,0.343,0.003,0.04,NaN,NaN,NaN,NaN,NaN,NaN,NaN,NaN,0.002,24.13,457.303,89,0,5.105,10.89,939.826,337.898,0.01,0.147
0.89,5.479,16.775,25.875,16.777,25.879,0.096,0,0.096,0,0.293,0.452,35.353,-117.807,9.796,17.074,0,0,0,1.045e5,4.202e4,140.005,1.081,NaN,362.779,NaN,0.052,6.264e6,3731.749,4.126,0.387,0.503,0.343,0.003,0.04,NaN,NaN,NaN,NaN,NaN,NaN,NaN,NaN,0.002,24.13,457.303,89,0,5.181,10.889,939.807,337.898,0.01,0.148
0.9,5.648,17.033,25.863,17.036,25.867,0.099,0,0.099,0,0.297,0.451,35.353,-117.807,9.796,17.064,0,0,0,1.045e5,4.2e4,140.001,1.081,NaN,362.775,NaN,0.053,6.36e6,3729.941,4.254,0.387,0.503,0.343,0.003,0.04,NaN,NaN,NaN,NaN,NaN,NaN,NaN,NaN,0.002,24.13,457.303,89,0,5.258,10.888,939.788,337.897,0.01,0.149
0.91,5.819,17.292,25.851,17.294,25.855,0.102,0,0.102,0,0.302,0.451,35.353,-117.807,9.796,16.709,0,0,0,1.045e5,4.198e4,139.997,1.081,NaN,362.772,NaN,0.054,6.444e6,3728.134,4.365,0.387,0.503,0.343,0.003,0.04,NaN,NaN,NaN,NaN,NaN,NaN,NaN,NaN,0.002,24.13,457.303,89,0,5.22,10.887,939.769,337.896,0.01,0.15
0.92,5.993,17.55,25.84,17.553,25.843,0.105,0,0.105,0,0.306,0.451,35.353,-117.807,9.796,16.364,0,0,0,1.044e5,4.196e4,139.992,1.081,NaN,362.768,NaN,0.054,6.528e6,3726.326,4.476,0.387,0.502,0.343,0.003,0.04,NaN,NaN,NaN,NaN,NaN,NaN,NaN,NaN,0.002,24.13,457.303,89,0,5.181,10.886,939.75,337.896,0.01,0.151
0.93,6.17,17.808,25.828,17.811,25.832,0.108,0,0.108,0,0.311,0.451,35.353,-117.807,9.796,16.027,0,0,0,1.044e5,4.194e4,139.988,1.081,NaN,362.765,NaN,0.055,6.611e6,3724.518,4.587,0.387,0.502,0.343,0.003,0.04,NaN,NaN,NaN,NaN,NaN,NaN,NaN,NaN,0.002,24.13,457.303,89,0,5.143,10.884,939.73,337.895,0.01,0.152
0.94,6.35,18.066,25.816,18.069,25.82,0.111,0,0.111,0,0.315,0.451,35.353,-117.807,9.796,15.699,0,0,0,1.044e5,4.193e4,139.984,1.08,NaN,362.761,NaN,0.056,6.696e6,3722.71,4.696,0.387,0.501,0.343,0.003,0.04,NaN,NaN,NaN,NaN,NaN,NaN,NaN,NaN,0.002,24.13,457.303,89,0,5.105,10.883,939.71,337.894,0.01,0.153
0.95,6.532,18.324,25.804,18.327,25.808,0.114,0,0.114,0,0.32,0.45,35.353,-117.807,9.796,15.379,0,0,0,1.044e5,4.191e4,139.979,1.08,NaN,362.758,NaN,0.057,6.78e6,3720.902,4.805,0.387,0.5,0.343,0.003,0.04,NaN,NaN,NaN,NaN,NaN,NaN,NaN,NaN,0.002,24.13,457.303,89,0,5.066,10.882,939.69,337.893,0.01,0.154
0.96,6.716,18.582,25.792,18.585,25.796,0.117,0,0.117,0,0.324,0.45,35.353,-117.807,9.796,14.789,0,0,0,1.044e5,4.189e4,139.975,1.08,NaN,362.754,NaN,0.057,6.855e6,3719.094,4.889,0.387,0.497,0.343,0.003,0.04,NaN,NaN,NaN,NaN,NaN,NaN,NaN,NaN,0.002,24.13,457.303,89,0,4.93,10.881,939.669,337.893,0.01,0.155
0.97,6.903,18.84,25.781,18.843,25.785,0.12,0,0.12,0,0.329,0.45,35.353,-117.807,9.796,14.212,0,0,0,1.043e5,4.187e4,139.97,1.08,NaN,362.751,NaN,0.058,6.93e6,3717.286,4.967,0.387,0.495,0.343,0.003,0.04,NaN,NaN,NaN,NaN,NaN,NaN,NaN,NaN,0.002,24.13,457.303,89,0,4.794,10.88,939.648,337.892,0.01,0.156
0.98,7.093,19.098,25.769,19.101,25.773,0.124,0,0.124,0,0.333,0.45,35.353,-117.807,9.796,13.648,0,0,0,1.043e5,4.185e4,139.966,1.08,NaN,362.747,NaN,0.058,7.007e6,3715.478,5.042,0.387,0.491,0.343,0.003,0.04,NaN,NaN,NaN,NaN,NaN,NaN,NaN,NaN,0.002,24.13,457.303,89,0,4.658,10.878,939.627,337.891,0.01,0.157
0.99,7.285,19.355,25.758,19.358,25.762,0.127,0,0.127,0,0.338,0.45,35.353,-117.807,9.796,13.095,0,0,0,1.043e5,4.183e4,139.962,1.08,NaN,362.744,NaN,0.059,7.083e6,3713.67,5.114,0.387,0.487,0.343,0.003,0.04,NaN,NaN,NaN,NaN,NaN,NaN,NaN,NaN,0.002,24.13,457.303,89,0,4.522,10.877,939.605,337.89,0.01,0.158
1,7.48,19.613,25.747,19.616,25.75,0.131,0,0.131,0,0.342,0.449,35.353,-117.807,9.796,12.555,0,0,0,1.043e5,4.181e4,139.957,1.08,NaN,362.74,NaN,0.06,7.161e6,3711.862,5.182,0.387,0.483,0.343,0.003,0.04,NaN,NaN,NaN,NaN,NaN,NaN,NaN,NaN,0.002,24.13,457.303,89,0,4.386,10.876,939.584,337.89,0.01,0.159
1.01,7.677,19.87,25.735,19.873,25.738,0.134,0,0.134,0,0.347,0.449,35.353,-117.807,9.796,12.508,0,0,0,1.043e5,4.179e4,139.953,1.079,NaN,362.737,NaN,0.06,7.253e6,3710.055,5.313,0.387,0.483,0.343,0.003,0.04,NaN,NaN,NaN,NaN,NaN,NaN,NaN,NaN,0.002,24.13,457.303,89,0,4.426,10.875,939.561,337.889,0.01,0.16
1.02,7.877,20.127,25.722,20.13,25.726,0.138,0,0.138,0,0.351,0.449,35.353,-117.807,9.796,12.461,0,0,0,1.042e5,4.177e4,139.949,1.079,NaN,362.733,NaN,0.061,7.346e6,3708.247,5.445,0.387,0.482,0.343,0.003,0.04,NaN,NaN,NaN,NaN,NaN,NaN,NaN,NaN,0.002,24.13,457.303,89,0,4.466,10.873,939.539,337.888,0.01,0.161
1.03,8.08,20.384,25.71,20.387,25.714,0.141,0,0.141,0,0.356,0.449,35.353,-117.807,9.796,12.416,0,0,0,1.042e5,4.175e4,139.944,1.079,NaN,362.73,NaN,0.062,7.438e6,3706.439,5.579,0.387,0.482,0.343,0.003,0.04,NaN,NaN,NaN,NaN,NaN,NaN,NaN,NaN,0.002,24.13,457.303,89,0,4.507,10.872,939.517,337.887,0.01,0.162
1.04,8.285,20.641,25.696,20.644,25.7,0.145,0,0.145,0,0.36,0.449,35.353,-117.807,9.796,12.373,0,0,0,1.042e5,4.173e4,139.94,1.079,NaN,362.726,NaN,0.063,7.53e6,3704.406,5.714,0.387,0.482,0.343,0.003,0.04,NaN,NaN,NaN,NaN,NaN,NaN,NaN,NaN,0.002,24.13,457.303,89,0,4.547,10.871,939.494,337.887,0.01,0.163
1.05,8.493,20.898,25.68,20.901,25.684,0.148,0,0.148,0,0.365,0.448,35.353,-117.807,9.796,12.33,0,0,0,1.042e5,4.171e4,139.935,1.079,NaN,362.723,NaN,0.064,7.622e6,3702.148,5.851,0.387,0.481,0.343,0.003,0.04,NaN,NaN,NaN,NaN,NaN,NaN,NaN,NaN,0.002,24.13,457.303,89,0,4.587,10.869,939.47,337.886,0.01,0.164
1.06,8.703,21.155,25.663,21.158,25.667,0.152,0,0.152,0,0.369,0.448,35.353,-117.807,9.796,12.433,0,0,0,1.042e5,4.169e4,139.931,1.079,NaN,362.719,NaN,0.064,7.719e6,3699.89,6.011,0.387,0.482,0.343,0.003,0.04,NaN,NaN,NaN,NaN,NaN,NaN,NaN,NaN,0.003,24.13,457.303,89,0,4.683,10.868,939.447,337.885,0.01,0.165
1.07,8.916,21.411,25.646,21.414,25.65,0.156,0,0.156,0,0.374,0.448,35.353,-117.807,9.796,12.534,0,0,0,1.041e5,4.168e4,139.927,1.079,NaN,362.716,NaN,0.065,7.816e6,3697.632,6.173,0.387,0.483,0.343,0.003,0.04,NaN,NaN,NaN,NaN,NaN,NaN,NaN,NaN,0.003,24.13,457.303,89,0,4.78,10.867,939.423,337.884,0.01,0.166
1.08,9.131,21.667,25.63,21.671,25.633,0.159,0,0.159,0,0.378,0.447,35.353,-117.807,9.796,12.632,0,0,0,1.041e5,4.166e4,139.922,1.079,NaN,362.712,NaN,0.066,7.913e6,3695.373,6.337,0.387,0.484,0.343,0.003,0.04,NaN,NaN,NaN,NaN,NaN,NaN,NaN,NaN,0.003,24.13,457.303,89,0,4.877,10.865,939.399,337.883,0.01,0.167
1.09,9.349,21.923,25.613,21.927,25.617,0.163,0,0.163,0,0.383,0.447,35.353,-117.807,9.796,12.728,0,0,0,1.041e5,4.164e4,139.918,1.078,NaN,362.709,NaN,0.067,8.009e6,3693.115,6.503,0.387,0.485,0.343,0.003,0.04,NaN,NaN,NaN,NaN,NaN,NaN,NaN,NaN,0.003,24.13,457.303,89,0,4.973,10.864,939.375,337.882,0.01,0.168
1.1,9.57,22.179,25.596,22.183,25.6,0.167,0,0.167,0,0.387,0.447,35.353,-117.807,9.796,12.822,0,0,0,1.041e5,4.162e4,139.914,1.078,NaN,362.705,NaN,0.068,8.106e6,3690.857,6.67,0.387,0.485,0.343,0.003,0.04,NaN,NaN,NaN,NaN,NaN,NaN,NaN,NaN,0.003,24.13,457.303,89,0,5.07,10.862,939.35,337.881,0.01,0.169
1.11,9.793,22.435,25.58,22.439,25.584,0.171,0,0.171,0,0.392,0.446,35.353,-117.807,9.796,12.537,0,0,0,1.041e5,4.16e4,139.909,1.078,NaN,362.702,NaN,0.068,8.189e6,3688.599,6.777,0.387,0.483,0.343,0.003,0.04,NaN,NaN,NaN,NaN,NaN,NaN,NaN,NaN,0.003,24.13,457.303,89,0,5.01,10.861,939.325,337.881,0.01,0.17
1.12,10.018,22.691,25.564,22.694,25.568,0.175,0,0.175,0,0.396,0.446,35.353,-117.807,9.796,12.257,0,0,0,1.041e5,4.158e4,139.905,1.078,NaN,362.698,NaN,0.069,8.273e6,3686.341,6.884,0.387,0.481,0.343,0.003,0.04,NaN,NaN,NaN,NaN,NaN,NaN,NaN,NaN,0.003,24.13,457.303,89,0,4.95,10.859,939.3,337.88,0.01,0.171
1.13,10.247,22.946,25.547,22.95,25.551,0.179,0,0.179,0,0.401,0.446,35.353,-117.807,9.796,11.983,0,0,0,1.04e5,4.156e4,139.9,1.078,NaN,362.695,NaN,0.07,8.357e6,3684.083,6.991,0.387,0.479,0.343,0.004,0.04,NaN,NaN,NaN,NaN,NaN,NaN,NaN,NaN,0.003,24.13,457.303,89,0,4.89,10.858,939.274,337.879,0.01,0.172
1.14,10.477,23.201,25.531,23.205,25.535,0.183,0,0.183,0,0.405,0.446,35.353,-117.807,9.796,11.715,0,0,0,1.04e5,4.154e4,139.896,1.078,NaN,362.691,NaN,0.07,8.44e6,3681.825,7.097,0.387,0.476,0.343,0.004,0.04,NaN,NaN,NaN,NaN,NaN,NaN,NaN,NaN,0.003,24.13,457.303,89,0,4.83,10.856,939.249,337.878,0.01,0.173
1.15,10.711,23.457,25.515,23.46,25.519,0.187,0,0.187,0,0.409,0.445,35.353,-117.807,9.796,11.452,0,0,0,1.04e5,4.152e4,139.892,1.078,NaN,362.688,NaN,0.071,8.524e6,3679.567,7.204,0.387,0.474,0.343,0.004,0.04,NaN,NaN,NaN,NaN,NaN,NaN,NaN,NaN,0.003,24.13,457.303,89,0,4.77,10.855,939.223,337.877,0.01,0.174
1.16,10.946,23.712,25.499,23.715,25.503,0.191,0,0.191,0,0.414,0.445,35.353,-117.807,9.796,11.207,0,0,0,1.04e5,4.15e4,139.887,1.077,NaN,362.684,NaN,0.072,8.609e6,3677.309,7.313,0.387,0.472,0.343,0.004,0.04,NaN,NaN,NaN,NaN,NaN,NaN,NaN,NaN,0.003,24.13,457.303,89,0,4.716,10.853,939.196,337.876,0.01,0.175
1.17,11.185,23.966,25.483,23.97,25.486,0.195,0,0.195,0,0.418,0.445,35.353,-117.807,9.796,10.968,0,0,0,1.04e5,4.148e4,139.883,1.077,NaN,362.681,NaN,0.073,8.693e6,3675.051,7.422,0.387,0.469,0.343,0.004,0.04,NaN,NaN,NaN,NaN,NaN,NaN,NaN,NaN,0.003,24.13,457.303,89,0,4.662,10.852,939.17,337.875,0.01,0.176
1.18,11.426,24.221,25.466,24.225,25.47,0.199,0,0.199,0,0.423,0.445,35.353,-117.807,9.796,10.733,0,0,0,1.039e5,4.146e4,139.879,1.077,NaN,362.677,NaN,0.073,8.778e6,3672.793,7.532,0.387,0.467,0.343,0.004,0.04,NaN,NaN,NaN,NaN,NaN,NaN,NaN,NaN,0.003,24.13,457.303,89,0,4.608,10.85,939.143,337.874,0.01,0.177
1.19,11.669,24.475,25.45,24.479,25.454,0.204,0,0.204,0,0.427,0.444,35.353,-117.807,9.796,10.503,0,0,0,1.039e5,4.145e4,139.874,1.077,NaN,362.674,NaN,0.074,8.863e6,3670.535,7.642,0.387,0.465,0.343,0.004,0.04,NaN,NaN,NaN,NaN,NaN,NaN,NaN,NaN,0.003,24.13,457.303,89,0,4.554,10.849,939.115,337.873,0.01,0.178
1.2,11.915,24.73,25.434,24.734,25.438,0.208,0,0.208,0,0.432,0.444,35.353,-117.807,9.796,10.277,0,0,0,1.039e5,4.143e4,139.87,1.077,NaN,362.67,NaN,0.075,8.948e6,3668.276,7.752,0.387,0.463,0.343,0.004,0.04,NaN,NaN,NaN,NaN,NaN,NaN,NaN,NaN,0.003,24.13,457.303,89,0,4.5,10.847,939.088,337.872,0.01,0.179
1.21,12.164,24.984,25.417,24.988,25.421,0.212,0,0.212,0,0.436,0.444,35.353,-117.807,9.796,10.207,0,0,0,1.039e5,4.141e4,139.866,1.077,NaN,362.667,NaN,0.075,9.037e6,3666.018,7.896,0.387,0.462,0.343,0.004,0.04,NaN,NaN,NaN,NaN,NaN,NaN,NaN,NaN,0.003,24.13,457.303,89,0,4.514,10.845,939.06,337.871,0.01,0.18
1.22,12.415,25.238,25.4,25.242,25.404,0.217,0,0.217,0,0.441,0.443,35.353,-117.807,9.796,10.138,0,0,0,1.039e5,4.139e4,139.861,1.077,NaN,362.663,NaN,0.076,9.127e6,3663.76,8.042,0.387,0.461,0.343,0.004,0.04,NaN,NaN,NaN,NaN,NaN,NaN,NaN,NaN,0.003,24.13,457.303,89,0,4.528,10.844,939.032,337.87,0.01,0.181
1.23,12.669,25.492,25.384,25.496,25.388,0.221,0,0.221,0,0.445,0.443,35.353,-117.807,9.796,10.071,0,0,0,1.038e5,4.137e4,139.857,1.076,NaN,362.66,NaN,0.077,9.216e6,3661.502,8.189,0.387,0.461,0.343,0.004,0.04,NaN,NaN,NaN,NaN,NaN,NaN,NaN,NaN,0.003,24.13,457.303,89,0,4.543,10.842,939.004,337.869,0.01,0.182
1.24,12.925,25.745,25.367,25.749,25.371,0.226,0,0.226,0,0.449,0.443,35.353,-117.807,9.796,10.005,0,0,0,1.038e5,4.135e4,139.852,1.076,NaN,362.656,NaN,0.078,9.306e6,3659.244,8.337,0.387,0.46,0.343,0.004,0.04,NaN,NaN,NaN,NaN,NaN,NaN,NaN,NaN,0.003,24.13,457.303,89,0,4.557,10.84,938.975,337.868,0.01,0.183
1.25,13.184,25.999,25.35,26.003,25.354,0.23,0,0.23,0,0.454,0.442,35.353,-117.807,9.796,9.94,0,0,0,1.038e5,4.133e4,139.848,1.076,NaN,362.653,NaN,0.078,9.395e6,3656.986,8.486,0.387,0.46,0.343,0.004,0.04,NaN,NaN,NaN,NaN,NaN,NaN,NaN,NaN,0.003,24.13,457.303,89,0,4.572,10.839,938.946,337.867,0.01,0.184
1.26,13.445,26.252,25.334,26.256,25.338,0.235,0,0.235,0,0.458,0.442,35.353,-117.807,9.796,9.887,0,0,0,1.038e5,4.131e4,139.844,1.076,NaN,362.649,NaN,0.079,9.485e6,3654.728,8.639,0.387,0.459,0.343,0.004,0.04,NaN,NaN,NaN,NaN,NaN,NaN,NaN,NaN,0.003,24.13,457.303,89,0,4.591,10.837,938.917,337.866,0.01,0.189
1.27,13.709,26.505,25.317,26.509,25.321,0.239,0,0.239,0,0.463,0.442,35.353,-117.807,9.796,9.835,0,0,0,1.038e5,4.129e4,139.839,1.076,NaN,362.646,NaN,0.08,9.574e6,3652.47,8.793,0.387,0.458,0.343,0.004,0.04,NaN,NaN,NaN,NaN,NaN,NaN,NaN,NaN,0.003,24.13,457.303,89,0,4.61,10.835,938.888,337.865,0.01,0.19
1.28,13.975,26.758,25.3,26.762,25.304,0.244,0,0.244,0,0.467,0.442,35.353,-117.807,9.796,9.783,0,0,0,1.037e5,4.127e4,139.835,1.076,NaN,362.642,NaN,0.081,9.664e6,3650.212,8.949,0.387,0.458,0.343,0.004,0.041,NaN,NaN,NaN,NaN,NaN,NaN,NaN,NaN,0.003,24.13,457.303,89,0,4.629,10.834,938.858,337.864,0.01,0.192
1.29,14.244,27.011,25.283,27.015,25.287,0.249,0,0.249,0,0.471,0.441,35.353,-117.807,9.796,9.733,0,0,0,1.037e5,4.125e4,139.83,1.076,NaN,362.638,NaN,0.081,9.753e6,3647.954,9.106,0.387,0.457,0.343,0.004,0.041,NaN,NaN,NaN,NaN,NaN,NaN,NaN,NaN,0.003,24.13,457.303,89,0,4.648,10.832,938.828,337.863,0.01,0.194
1.3,14.515,27.264,25.267,27.268,25.271,0.253,0,0.253,0,0.476,0.441,35.353,-117.807,9.796,9.684,0,0,0,1.037e5,4.123e4,139.826,1.075,NaN,362.635,NaN,0.082,9.843e6,3645.696,9.263,0.387,0.457,0.343,0.004,0.041,NaN,NaN,NaN,NaN,NaN,NaN,NaN,NaN,0.003,24.13,457.303,89,0,4.668,10.83,938.798,337.862,0.01,0.195
1.31,14.789,27.516,25.25,27.52,25.254,0.258,0,0.258,0,0.48,0.441,35.353,-117.807,9.796,9.576,0,0,0,1.037e5,4.121e4,139.822,1.075,NaN,362.631,NaN,0.083,9.93e6,3643.438,9.407,0.387,0.456,0.343,0.004,0.041,NaN,NaN,NaN,NaN,NaN,NaN,NaN,NaN,0.003,24.13,457.303,89,0,4.657,10.828,938.767,337.861,0.01,0.196
1.32,15.065,27.769,25.233,27.773,25.237,0.263,0,0.263,0,0.485,0.44,35.353,-117.807,9.796,9.471,0,0,0,1.037e5,4.12e4,139.817,1.075,NaN,362.628,NaN,0.084,1.002e7,3641.179,9.551,0.387,0.455,0.343,0.004,0.041,NaN,NaN,NaN,NaN,NaN,NaN,NaN,NaN,0.003,24.13,457.303,89,0,4.647,10.827,938.736,337.86,0.01,0.198
1.33,15.344,28.021,25.217,28.025,25.22,0.268,0,0.268,0,0.489,0.44,35.353,-117.807,9.796,9.367,0,0,0,1.036e5,4.118e4,139.813,1.075,NaN,362.624,NaN,0.084,1.01e7,3638.921,9.696,0.387,0.454,0.343,0.004,0.041,NaN,NaN,NaN,NaN,NaN,NaN,NaN,NaN,0.003,24.13,457.303,89,0,4.637,10.825,938.705,337.859,0.01,0.199
1.345,15.768,28.399,25.204,28.403,25.204,0.275,0,0.275,9.667e-7,0.49,0.027,35.353,-117.807,9.796,9.202,0,3.202e-4,-1.824e-8,1.036e5,4.115e4,139.806,1.075,394.07,362.619,1.303,0.085,1.024e7,3636.099,9.912,0.387,0.452,0.343,0.004,0.041,2.744,3.576,-7.134e-5,0,0,0,0,1.213e-4,0.003,24.13,457.303,88.999,3.183e-6,4.622,10.822,938.658,337.857,0.015,0.2
1.368,16.413,28.965,25.175,28.969,25.175,0.286,2.902e-8,0.286,5.809e-6,0.49,0.011,35.353,-117.807,9.796,9.144,0,8.13e-4,-1.14e-8,1.036e5,4.11e4,139.797,1.075,394.237,362.611,1.311,0.087,1.044e7,3631.865,10.294,0.387,0.452,0.343,0.004,0.041,2.722,3.567,4.383e-4,0,0,0,0,7.519e-4,0.003,24.13,457.303,88.995,7.572e-6,4.695,10.818,938.586,337.854,0.023,0.201
1.401,17.405,29.813,25.13,29.817,25.13,0.303,1.048e-7,0.303,1.983e-5,0.49,0.015,35.353,-117.807,9.796,9.118,0,0.002,3.365e-8,1.035e5,4.104e4,139.782,1.074,394.316,362.599,1.314,0.09,1.074e7,3625.514,10.898,0.387,0.451,0.343,0.004,0.041,2.713,3.563,1.092e-4,0,0,0,0,0.003,0.004,24.13,457.303,88.98,2.625e-5,4.841,10.811,938.475,337.851,0.034,0.202
1.451,18.927,31.066,25.064,31.069,25.064,0.327,3.036e-7,0.327,5.316e-5,0.489,0.001,35.353,-117.807,9.796,8.652,0,0.003,5.666e-8,1.034e5,4.094e4,139.76,1.073,395.664,362.581,1.371,0.093,1.118e7,3616.058,11.676,0.387,0.447,0.343,0.004,0.041,2.54,3.474,3.254e-4,0,0,0,0,0.008,0.004,24.13,457.303,88.941,8.164e-5,4.827,10.801,938.305,337.845,0.05,0.203
1.501,20.511,32.314,24.979,32.318,24.979,0.352,6.069e-7,0.352,9.887e-5,0.489,0.004,35.353,-117.807,9.796,8.437,0,0.004,2.944e-8,1.033e5,4.085e4,139.738,1.073,396.306,362.563,1.398,0.097,1.162e7,3604.768,12.559,0.387,0.444,0.343,0.004,0.041,2.461,3.426,-3.708e-4,0,0,0,0,0.015,0.004,24.13,457.303,88.879,1.536e-4,4.952,10.791,938.128,337.838,0.05,0.205
1.551,22.158,33.558,24.894,33.562,24.894,0.376,1.016e-6,0.376,1.548e-4,0.491,0.063,35.353,-117.807,9.796,7.868,0,0.005,-1.835e-7,1.032e5,4.075e4,139.716,1.072,398.034,362.546,1.471,0.101,1.205e7,3593.477,13.329,0.387,0.439,0.343,0.004,0.041,2.256,3.293,-4.473e-4,0,0,0,0,0.025,0.004,24.13,457.303,88.793,1.81e-4,4.869,10.78,937.944,337.832,0.05,0.206
1.601,23.867,34.8,24.852,34.804,24.852,0.401,1.532e-6,0.401,2.19e-4,0.494,0.071,35.353,-117.807,9.796,7.926,0,0.007,1.938e-7,1.031e5,4.066e4,139.694,1.071,397.861,362.528,1.464,0.104,1.25e7,3586.729,14.366,0.387,0.439,0.343,0.004,0.041,2.277,3.297,2.456e-4,0,0,0,0,0.037,0.004,24.13,457.303,88.682,1.784e-4,5.17,10.769,937.753,337.825,0.05,0.207
1.651,25.638,36.048,24.977,36.052,24.978,0.426,2.155e-6,0.426,2.901e-4,0.502,0.242,35.353,-117.807,9.796,6.779,0,0.008,1.039e-7,1.03e5,4.056e4,139.672,1.071,401.531,362.51,1.617,0.108,1.291e7,3597.058,14.928,0.387,0.428,0.343,0.004,0.041,1.881,2.989,2.171e-4,0,0,0,0,0.052,0.004,24.13,457.303,88.545,1.552e-4,4.715,10.758,937.555,337.818,0.05,0.208
1.701,27.472,37.303,25.115,37.307,25.118,0.451,2.886e-6,0.451,3.666e-4,0.516,0.34,35.353,-117.807,9.796,6.444,0,0.01,1.065e-8,1.029e5,4.046e4,139.65,1.07,402.666,362.492,1.665,0.112,1.335e7,3609.023,15.848,0.387,0.425,0.343,0.004,0.041,1.769,2.878,-2.413e-4,0,0,0,0,0.067,0.004,24.13,457.303,88.382,1.451e-4,4.767,10.746,937.35,337.811,0.05,0.209
1.751,29.369,38.566,25.254,38.569,25.261,0.477,3.728e-6,0.477,4.473e-4,0.54,0.585,35.353,-117.807,9.796,5.089,0,0.011,1.219e-7,1.028e5,4.037e4,139.628,1.069,407.5,362.474,1.866,0.115,1.377e7,3620.987,16.353,0.387,0.412,0.343,0.004,0.041,1.337,2.413,-1.371e-4,0,0,0,0,0.082,0.005,24.13,457.303,88.193,8.623e-5,4.124,10.734,937.138,337.803,0.05,0.21
1.801,31.329,39.835,25.391,39.839,25.399,0.505,4.681e-6,0.505,5.309e-4,0.57,0.631,35.353,-117.807,9.796,5.504,0,0.013,1.319e-7,1.027e5,4.027e4,139.606,1.069,405.983,362.456,1.804,0.119,1.424e7,3632.951,17.649,0.387,0.416,0.343,0.004,0.041,1.466,2.547,-2.949e-4,0,0,0,0,0.097,0.005,24.13,457.303,87.979,7.636e-6,4.692,10.721,936.919,337.796,0.05,0.211
1.851,33.352,41.111,25.528,41.115,25.54,0.535,5.747e-6,0.535,6.16e-4,0.605,0.773,35.353,-117.807,9.796,5.29,0,0.014,9.625e-9,1.026e5,4.018e4,139.584,1.068,406.773,362.438,1.837,0.123,1.469e7,3644.915,18.712,0.387,0.414,0.343,0.004,0.041,1.399,2.457,5.179e-6,0,0,0,0,0.114,0.005,24.13,457.303,87.739,-3.645e-5,4.845,10.708,936.693,337.788,0.05,0.213
1.901,35.44,42.393,25.663,42.398,25.68,0.566,6.929e-6,0.566,7.017e-4,0.647,0.913,35.353,-117.807,9.796,5.234,0,0.016,-1.405e-8,1.026e5,4.008e4,139.562,1.067,406.99,362.42,1.847,0.127,1.515e7,3656.88,19.891,0.387,0.413,0.343,0.004,0.041,1.382,2.42,-1.653e-4,0,0,0,0,0.132,0.005,24.13,457.303,87.471,-4.405e-5,5.132,10.694,936.46,337.78,0.05,0.214
1.951,37.592,43.683,25.797,43.688,25.82,0.599,8.234e-6,0.599,7.871e-4,0.697,1.091,35.353,-117.807,9.796,5.044,0,0.017,-2.634e-8,1.025e5,3.998e4,139.541,1.066,407.705,362.402,1.877,0.131,1.562e7,3668.844,21.044,0.387,0.412,0.343,0.004,0.041,1.324,2.334,-3.132e-4,0,0,0,0,0.152,0.005,24.13,457.303,87.174,-2.059e-5,5.341,10.68,936.219,337.771,0.05,0.215
2.001,39.808,44.979,25.927,44.985,25.965,0.636,9.672e-6,0.636,8.717e-4,0.76,1.407,35.353,-117.807,9.796,4.123,0,0.019,-2.474e-7,1.024e5,3.989e4,139.519,1.066,411.282,362.384,2.026,0.134,1.605e7,3680.808,21.846,0.387,0.404,0.342,0.004,0.041,1.049,1.955,-1.262e-4,0,0,0,0,0.17,0.005,24.13,457.303,86.848,4.927e-5,4.982,10.666,935.972,337.762,0.05,0.216
2.051,42.09,46.281,26.052,46.289,26.111,0.676,1.126e-5,0.676,9.552e-4,0.839,1.756,35.353,-117.807,9.796,3.149,0,0.02,-2.862e-8,1.023e5,3.979e4,139.497,1.065,415.336,362.365,2.195,0.138,1.649e7,3692.773,22.683,0.387,0.398,0.342,0.004,0.041,0.774,1.515,-4.285e-4,0,0,0,0,0.185,0.006,24.13,457.303,86.497,1.378e-4,4.558,10.651,935.717,337.753,0.05,0.217
2.101,44.437,47.59,26.178,47.599,26.254,0.72,1.303e-5,0.72,0.001,0.933,1.994,35.353,-117.807,9.796,3.023,0,0.021,-9.273e-8,1.022e5,3.97e4,139.475,1.064,415.893,362.347,2.219,0.142,1.697e7,3704.737,23.959,0.387,0.397,0.342,0.004,0.041,0.74,1.446,7.284e-5,0,0,0,0,0.196,0.006,24.13,457.303,86.123,2.203e-4,4.826,10.636,935.455,337.744,0.05,0.219
2.151,46.849,48.905,26.294,48.916,26.404,0.769,1.502e-5,0.769,0.001,1.043,2.409,35.353,-117.807,9.796,1.911,0,0.022,-2.836e-7,1.021e5,3.96e4,139.453,1.064,420.946,362.329,2.429,0.146,1.741e7,3716.701,24.866,0.387,0.391,0.342,0.004,0.041,0.449,0.887,7.172e-5,0,0,0,0,0.204,0.006,24.13,457.303,85.729,3.184e-4,4.253,10.62,935.185,337.735,0.05,0.22
2.201,49.327,50.225,26.407,50.239,26.553,0.825,1.725e-5,0.825,0.001,1.173,2.778,35.353,-117.807,9.796,1.19,0,0.023,-1.515e-7,1.02e5,3.95e4,139.431,1.063,424.462,362.311,2.576,0.149,1.786e7,3728.666,26.03,0.387,0.389,0.342,0.004,0.041,0.272,0.496,3.931e-5,0,0,0,0,0.204,0.006,24.13,457.303,85.32,4.302e-4,3.99,10.604,934.908,337.725,0.05,0.221
2.251,51.872,51.551,26.522,51.568,26.699,0.887,1.977e-5,0.887,0.001,1.32,3.072,35.353,-117.807,9.796,1.024,0,0.023,-2.094e-7,1.019e5,3.941e4,139.409,1.062,425.308,362.292,2.612,0.154,1.834e7,3740.63,27.415,0.387,0.389,0.342,0.004,0.041,0.233,0.407,1.201e-5,0,0,0,0,0.201,0.006,24.13,457.303,84.903,5.084e-4,4.209,10.587,934.624,337.715,0.05,0.222
2.301,54.482,52.883,26.627,52.904,26.849,0.957,2.265e-5,0.957,0.001,1.483,3.445,35.353,-117.807,9.796,0.423,0,0.024,6.052e-7,1.018e5,3.931e4,139.387,1.062,428.445,362.274,2.742,0.157,1.88e7,3752.594,28.752,0.388,0.388,0.342,0.004,0.041,0.094,0.063,3.563e-4,0,0,0,0,0.195,0.006,24.13,457.303,84.479,5.566e-4,4.023,10.57,934.332,337.705,0.05,0.223
2.351,57.16,54.219,26.71,54.245,26.994,1.035,2.591e-5,1.035,0.001,1.667,3.903,35.353,-117.807,9.796,0.628,0,-0.023,6.372e-7,1.017e5,3.922e4,139.365,1.061,427.374,362.256,2.699,0.161,1.925e7,3763.56,30.173,0.388,0.388,0.342,0.004,0.041,0.141,0.561,3.269e-4,0,0,0,0,-0.181,0.006,24.13,457.303,84.055,5.729e-4,3.379,10.553,934.033,337.694,0.05,0.225
2.401,59.904,55.559,26.803,55.591,27.113,1.124,2.962e-5,1.124,0.002,1.867,4.085,35.353,-117.807,9.796,0.063,0,-0.023,7.57e-6,1.016e5,3.912e4,139.343,1.06,430.411,362.237,2.825,0.166,1.976e7,3773.098,31.752,0.388,0.388,0.342,0.004,0.041,0.014,0.205,4.854e-4,0,0,0,0,-0.166,0.007,24.13,457.303,83.638,5.433e-4,4.266,10.535,933.726,337.683,0.05,0.226
2.451,62.716,56.903,26.866,56.941,27.245,1.222,3.38e-5,1.222,0.002,2.082,4.529,35.353,-117.807,9.796,0.952,0,-0.022,4.721e-7,1.015e5,3.902e4,139.32,1.06,425.723,362.219,2.632,0.169,2.021e7,3782.624,33.332,0.388,0.389,0.342,0.004,0.041,0.216,0.719,2.945e-4,0,0,0,0,-0.151,0.007,24.13,457.303,83.229,5.059e-4,3.715,10.517,933.412,337.672,0.05,0.227
2.501,65.595,58.251,26.943,58.297,27.37,1.332,3.851e-5,1.332,0.002,2.316,4.813,35.353,-117.807,9.796,0.987,0,-0.022,7.055e-7,1.014e5,3.893e4,139.298,1.059,425.561,362.2,2.626,0.174,2.07e7,3792.15,34.977,0.388,0.389,0.342,0.004,0.042,0.224,0.721,4.557e-4,0,0,0,0,-0.133,0.007,24.13,457.303,82.834,4.559e-4,3.991,10.498,933.091,337.661,0.05,0.228
2.551,68.541,59.602,26.994,59.657,27.504,1.454,4.378e-5,1.454,0.002,2.569,5.272,35.353,-117.807,9.796,1.855,0,-0.02,8.45e-7,1.013e5,3.883e4,139.276,1.058,421.309,362.182,2.45,0.177,2.116e7,3801.677,36.802,0.388,0.392,0.342,0.004,0.042,0.435,1.181,-1.947e-4,0,0,0,0,-0.113,0.007,24.13,457.303,82.456,4.261e-4,3.368,10.479,932.761,337.649,0.05,0.229
2.601,71.555,60.956,27.082,61.022,27.624,1.589,4.966e-5,1.589,0.002,2.837,5.448,35.353,-117.807,9.795,1.495,0,-0.019,1e-6,1.012e5,3.874e4,139.254,1.057,423.058,362.163,2.524,0.182,2.166e7,3811.203,38.46,0.388,0.39,0.342,0.004,0.042,0.346,0.967,-1.63e-4,0,0,0,0,-0.094,0.007,24.13,457.303,82.103,4.349e-4,4.003,10.459,932.425,337.637,0.05,0.23
2.651,74.637,62.313,27.129,62.391,27.759,1.738,5.62e-5,1.738,0.002,3.121,5.881,35.353,-117.807,9.795,2.257,0,-0.017,1.827e-7,1.011e5,3.864e4,139.232,1.057,419.459,362.145,2.375,0.186,2.212e7,3820.729,40.434,0.388,0.393,0.342,0.004,0.042,0.538,1.353,1.654e-4,0,0,0,0,-0.075,0.007,24.13,457.303,81.777,4.432e-4,3.391,10.439,932.08,337.625,0.05,0.232
2.701,77.787,63.674,27.211,63.766,27.881,1.902,6.346e-5,1.902,0.002,3.42,6.072,35.353,-117.807,9.795,2.108,0,-0.015,9.237e-7,1.01e5,3.854e4,139.21,1.056,420.16,362.126,2.405,0.19,2.262e7,3830.256,42.21,0.388,0.393,0.342,0.004,0.042,0.5,1.259,4.989e-4,0,0,0,0,-0.057,0.008,24.13,457.303,81.483,4.441e-4,3.732,10.419,931.729,337.613,0.05,0.233
2.751,81.004,65.039,27.295,65.146,28.001,2.08,7.151e-5,2.08,0.002,3.728,6.25,35.353,-117.807,9.795,1.997,0,-0.014,8.481e-7,1.009e5,3.845e4,139.188,1.055,420.694,362.107,2.428,0.194,2.311e7,3839.782,44.043,0.388,0.392,0.342,0.004,0.042,0.472,1.187,-6.392e-5,0,0,0,0,-0.042,0.008,24.13,457.303,81.223,4.675e-4,4.004,10.398,931.369,337.6,0.05,0.234
2.801,84.291,66.409,27.398,66.532,28.114,2.275,8.042e-5,2.275,0.002,4.043,6.305,35.353,-117.807,9.795,1.531,0,-0.012,1.589e-6,1.008e5,3.835e4,139.166,1.055,422.943,362.089,2.522,0.198,2.363e7,3849.309,45.84,0.388,0.391,0.342,0.004,0.042,0.355,0.927,-3.453e-4,0,0,0,0,-0.031,0.008,24.13,457.303,80.995,5.369e-4,4.671,10.377,931.002,337.587,0.05,0.235
2.851,87.645,67.783,27.49,67.924,28.232,2.485,9.026e-5,2.485,0.002,4.362,6.429,35.353,-117.807,9.795,1.388,0,-0.01,9.036e-7,1.007e5,3.826e4,139.144,1.054,423.657,362.07,2.552,0.203,2.413e7,3858.835,47.77,0.388,0.39,0.342,0.004,0.042,0.32,0.84,3.072e-4,0,0,0,0,-0.023,0.008,24.13,457.303,80.795,6.359e-4,4.944,10.355,930.627,337.574,0.05,0.236
2.901,91.069,69.163,27.596,69.321,28.342,2.711,1.011e-4,2.711,0.002,4.684,6.461,35.353,-117.807,9.795,0.998,0,-0.009,2.165e-6,1.006e5,3.816e4,139.122,1.053,425.624,362.051,2.635,0.207,2.465e7,3868.361,49.732,0.388,0.389,0.342,0.004,0.042,0.227,0.615,-3.094e-4,0,0,0,0,-0.017,0.008,24.13,457.303,80.62,7.288e-4,5.508,10.333,930.245,337.56,0.05,0.238
2.951,94.562,70.547,27.692,70.725,28.457,2.953,1.132e-4,2.953,0.002,5.01,6.554,35.353,-117.807,9.795,0.872,0,-0.008,2.354e-6,1.005e5,3.806e4,139.1,1.053,426.283,362.032,2.663,0.211,2.516e7,3877.888,51.774,0.388,0.389,0.342,0.004,0.042,0.198,0.539,-4.931e-4,0,0,0,0,-0.013,0.008,24.13,457.303,80.465,8.554e-4,5.739,10.31,929.854,337.547,0.05,0.239
3.001,98.124,71.937,27.794,72.135,28.569,3.212,1.264e-4,3.212,0.002,5.34,6.609,35.353,-117.807,9.795,0.668,0,-0.007,1.598e-6,1.004e5,3.797e4,139.078,1.052,427.358,362.014,2.708,0.216,2.567e7,3887.414,53.873,0.388,0.389,0.341,0.005,0.042,0.15,0.416,2.798e-4,0,0,0,0,-0.01,0.009,24.13,457.303,80.327,9.97e-4,6.061,10.287,929.456,337.533,0.05,0.24
3.051,101.756,73.331,27.875,73.55,28.689,3.487,1.411e-4,3.487,0.002,5.675,6.784,35.353,-117.807,9.795,0.879,0,-0.006,8.729e-7,1.003e5,3.787e4,139.056,1.051,426.284,361.995,2.664,0.22,2.615e7,3896.94,55.997,0.388,0.389,0.341,0.005,0.042,0.199,0.538,-2.545e-4,0,0,0,0,-0.007,0.009,24.13,457.303,80.206,0.001,5.828,10.263,929.051,337.518,0.05,0.241
3.101,105.457,74.729,27.957,74.971,28.808,3.78,1.572e-4,3.78,0.002,6.019,6.951,35.353,-117.807,9.795,1.082,0,-0.005,1.288e-6,1.002e5,3.778e4,139.033,1.051,425.268,361.976,2.623,0.224,2.664e7,3906.467,58.177,0.388,0.39,0.341,0.005,0.042,0.247,0.653,2.821e-4,0,0,0,0,-0.004,0.009,24.13,457.303,80.103,0.001,5.569,10.239,928.637,337.504,0.05,0.242
3.151,109.229,76.131,28.023,76.397,28.934,4.089,1.748e-4,4.089,0.002,6.373,7.203,35.353,-117.807,9.795,1.542,0,-0.003,1.073e-6,1.002e5,3.768e4,139.011,1.05,423.009,361.957,2.53,0.228,2.71e7,3915.993,60.453,0.388,0.391,0.341,0.005,0.042,0.359,0.909,1.957e-4,0,0,0,0,-0.002,0.009,24.13,457.303,80.026,0.001,4.911,10.215,928.216,337.489,0.05,0.243
3.201,113.07,77.537,28.138,77.829,29.04,4.417,1.942e-4,4.417,0.003,6.733,7.183,35.353,-117.807,9.795,1.306,0,-0.002,1.223e-6,1.001e5,3.758e4,138.989,1.049,424.185,361.938,2.58,0.232,2.761e7,3925.519,62.669,0.389,0.39,0.341,0.005,0.043,0.301,0.777,-7.138e-5,0,0,0,0,-4.024e-4,0.009,24.13,457.303,79.981,0.001,5.15,10.19,927.786,337.474,0.05,0.245
3.251,116.982,78.949,28.236,79.267,29.154,4.763,2.154e-4,4.763,0.003,7.095,7.259,35.353,-117.807,9.795,1.385,0,2.193e-4,1.142e-6,9.996e4,3.749e4,138.967,1.048,423.815,361.919,2.565,0.237,2.81e7,3935.046,64.974,0.389,0.391,0.341,0.005,0.043,0.32,0.822,-4.934e-4,0,0,0,0,7.43e-6,0.009,24.13,457.303,79.969,0.002,4.91,10.164,927.349,337.458,0.05,0.246
3.301,120.965,80.365,28.317,80.711,29.273,5.127,2.385e-4,5.127,0.003,7.462,7.42,35.353,-117.807,9.795,1.72,0,0.002,1.982e-6,9.986e4,3.739e4,138.945,1.048,422.207,361.9,2.499,0.241,2.857e7,3944.572,67.383,0.389,0.392,0.341,0.005,0.043,0.403,1.006,-2.089e-4,0,0,0,0,8.379e-4,0.01,24.13,457.303,79.991,0.002,4.244,10.138,926.904,337.443,0.05,0.247
3.351,125.019,81.786,28.427,82.16,29.382,5.509,2.636e-4,5.509,0.003,7.834,7.432,35.353,-117.807,9.795,1.744,0,0.005,1.451e-6,9.977e4,3.73e4,138.923,1.047,422.111,361.881,2.496,0.245,2.906e7,3954.117,69.757,0.389,0.392,0.341,0.005,0.043,0.409,1.017,3.537e-4,0,0,0,0,0.003,0.01,24.13,457.303,80.056,0.002,3.951,10.112,926.451,337.427,0.05,0.248
3.401,129.144,83.213,28.569,83.617,29.483,5.91,2.909e-4,5.91,0.003,8.203,7.282,35.353,-117.807,9.795,1.469,0,0.007,5.128e-8,9.967e4,3.72e4,138.901,1.046,423.461,361.862,2.553,0.249,2.957e7,3963.987,72.081,0.389,0.391,0.341,0.005,0.043,0.341,0.864,3.748e-5,0,0,0,0,0.007,0.01,24.13,457.303,80.165,0.002,4.036,10.085,925.991,337.41,0.05,0.249
3.451,133.341,84.648,28.731,85.08,29.577,6.329,3.205e-4,6.329,0.003,8.561,7.023,35.353,-117.807,9.795,1.026,0,0.009,1.644e-6,9.958e4,3.71e4,138.878,1.046,425.688,361.842,2.646,0.254,3.009e7,3973.974,74.451,0.389,0.39,0.341,0.005,0.043,0.234,0.609,-4.758e-4,0,0,0,0,0.011,0.01,24.13,457.303,80.312,0.002,4.336,10.058,925.522,337.394,0.05,0.25
3.501,137.609,86.091,28.895,86.551,29.67,6.766,3.524e-4,6.766,0.003,8.906,6.735,35.353,-117.807,9.795,0.579,0,0.01,1.347e-7,9.948e4,3.701e4,138.856,1.045,428.009,361.823,2.743,0.258,3.062e7,3983.961,76.945,0.389,0.389,0.341,0.005,0.043,0.13,0.343,4.713e-4,0,0,0,0,0.014,0.01,24.13,457.303,80.488,0.002,4.628,10.03,925.045,337.377,0.05,0.252
3.551,141.95,87.542,29.041,88.028,29.771,7.22,3.868e-4,7.22,0.003,9.238,6.55,35.353,-117.807,9.795,0.404,0,0.011,-5.119e-7,9.938e4,3.691e4,138.834,1.044,428.954,361.804,2.783,0.263,3.112e7,3993.948,79.493,0.389,0.389,0.341,0.005,0.043,0.09,0.236,3.676e-5,0,0,0,0,0.016,0.01,24.13,457.303,80.682,0.002,4.492,10.002,924.56,337.36,0.05,0.253
3.601,146.363,89.001,29.202,89.513,29.865,7.69,4.238e-4,7.69,0.003,9.559,6.258,35.353,-117.807,9.795,0.026,0,0.012,-3.235e-5,9.929e4,3.682e4,138.812,1.044,431.021,361.785,2.869,0.267,3.164e7,4003.935,82.184,0.389,0.389,0.341,0.005,0.043,0.006,3.435e-4,-1.426e-4,0,0,0,0,0.016,0.011,24.13,457.303,80.887,0.003,4.677,9.973,924.067,337.343,0.05,0.254
3.651,150.85,90.467,29.35,91.004,29.964,8.175,4.633e-4,8.175,0.003,9.866,6.037,35.353,-117.807,9.795,0.178,0,-0.011,-6.994e-6,9.919e4,3.672e4,138.79,1.043,430.214,361.765,2.837,0.272,3.215e7,4013.922,84.902,0.389,0.389,0.341,0.005,0.043,0.039,0.126,-2.029e-4,0,0,0,0,-0.015,0.011,24.13,457.303,81.093,0.003,4.6,9.944,923.565,337.325,0.05,0.256
3.701,155.41,91.941,29.49,92.501,30.066,8.676,5.056e-4,8.676,0.003,10.164,5.859,35.353,-117.807,9.795,0.288,0,-0.011,-3.466e-6,9.91e4,3.662e4,138.767,1.042,429.641,361.746,2.814,0.276,3.266e7,4023.909,87.64,0.389,0.389,0.34,0.005,0.044,0.064,0.193,3.204e-5,0,0,0,0,-0.013,0.011,24.13,457.303,81.293,0.003,4.391,9.914,923.056,337.307,0.05,0.257
3.751,160.044,93.421,29.644,94.004,30.162,9.191,5.508e-4,9.191,0.003,10.45,5.564,35.353,-117.807,9.795,0.624,0,-0.01,-1.961e-6,9.9e4,3.653e4,138.745,1.042,427.886,361.727,2.742,0.281,3.318e7,4033.896,90.626,0.389,0.39,0.34,0.005,0.044,0.141,0.396,2.882e-4,0,0,0,0,-0.011,0.011,24.13,457.303,81.48,0.003,4.589,9.884,922.538,337.289,0.05,0.258
3.801,164.753,94.909,29.768,95.513,30.269,9.721,5.989e-4,9.721,0.004,10.726,5.482,35.353,-117.807,9.795,0.575,0,-0.009,-4.123e-6,9.89e4,3.643e4,138.723,1.041,428.165,361.707,2.754,0.285,3.368e7,4043.883,93.384,0.389,0.39,0.34,0.005,0.044,0.129,0.364,2.987e-4,0,0,0,0,-0.008,0.011,24.13,457.303,81.647,0.004,4.185,9.854,922.012,337.27,0.05,0.259
3.851,169.535,96.404,29.903,97.029,30.371,10.264,6.502e-4,10.264,0.004,10.996,5.306,35.353,-117.807,9.795,0.718,0,-0.007,-3.763e-6,9.881e4,3.634e4,138.701,1.04,427.444,361.688,2.725,0.289,3.42e7,4053.87,96.379,0.39,0.39,0.34,0.005,0.044,0.162,0.449,-2.038e-4,0,0,0,0,-0.005,0.012,24.13,457.303,81.79,0.004,4.15,9.823,921.478,337.251,0.05,0.26
3.901,174.393,97.905,30.042,98.55,30.471,10.82,7.047e-4,10.82,0.004,11.256,5.094,35.353,-117.807,9.795,0.943,0,-0.005,-2.265e-6,9.871e4,3.624e4,138.678,1.04,426.317,361.668,2.679,0.294,3.473e7,4063.858,99.55,0.39,0.391,0.34,0.006,0.044,0.215,0.58,-3.916e-4,0,0,0,0,-0.003,0.012,24.13,457.303,81.905,0.004,4.318,9.791,920.935,337.232,0.05,0.261
